Node,Airport Name,Lon,Lat
ALB, Albany International,-73.80169678,42.74829865
BED, Laurence G Hanscom Field,-71.28900146,42.47000122
BLM, Monmouth Executive,-74.1222892,
EWB, New Bedford Regional,-70.95690155,41.67610168
HPN, Westchester County,-73.70760345,41.06700134
IAD, Washington Dulles International,-77.45580292,38.94449997
JFK, John F. Kennedy International,-73.77890015,40.63980103
MHT, Manchester-Boston Regional,-71.435699,42.932598
MVY, Martha's Vineyard Airport,-70.61430359,41.39310074
NAD, Harriman-and-West,-74.14458990000001,
SIG, Isla Grande,-66.09809875,18.45680046
SJU, Luis Munoz Marin International,-66.00180054,18.43939972
STX, Henry E. Rohlsen,-64.79859924,17.70190048
YYZ, Lester B. Pearson International,-79.63059998,43.67720032
LAX, Los Angeles International,-118.40799709999999,33.94250107
SAN, San Diego International,-117.1900024,32.73360062
TEB, Teterboro Airport,-74.06079865,40.85010147
TRM, Jacqueline Cochran Regional,-116.1600037,33.62670135
AUS, Austin - Bergstrom International,-97.66989899,30.19449997
HOU, William P Hobby,-95.27890015,29.64539909
SJC, Norman Y. Mineta San Jose International,-121.929001,37.362598
LIM, Jorge Chavez International,-77.114305,-12.0219
ROP, Benjamin Taisacan Manglona International,145.2429962,14.17430019
GHC, Great Harbour Cay Airport,-77.840103,25.7383
MPB, Watson Island International,-80.1703,25.7783
SAQ, San Andros Airport,-78.04900359999999,25.05380058
GAL, Edward G. Pitka Sr.,-156.93699650000002,64.73619843
GKN, Gulkana Airport,-145.4570007,62.15489960000001
MTX, Metro Field,-147.75512609999998,
ACK, Nantucket Memorial,-70.06020355,41.25310135
LGA, LaGuardia,-73.87259674,40.77719879
ANI, Aniak Airport,-159.5429993,61.58160019
ANV, Anvik Airport,-160.190994,62.646702000000005
KLG, Kalskag Airport,-160.3410034,61.53630066
RSH, Russian Mission Airport,-161.319458,61.77888489
ABL, Ambler River,-157.856989,67.1063
AUK, Alakanuk Airport,-164.6599274,62.68004227
DRG, Deering Airport,-162.7660065,66.06960297
ELI, Elim Airport,-162.2720032,64.61470032
IAN, Bob Baker Memorial,-160.43699650000002,66.97599792
KOT, Kotlik Airport,-163.53300480000001,63.0306015
KSM, St. Mary's Airport,-163.30200200000002,62.0605011
ORV, Robert/Bob/Curtis Memorial,-161.01899719999997,66.81790161
OTZ, Ralph Wien Memorial,-162.598999,66.88469696
RDB, Red Dog Airport,-162.8990021,68.03209686
SHG, Shungnak Airport,-157.1620026,66.88809967
SHH, Shishmaref Airport,-166.089112,66.249604
SHX, Shageluk Airport,-159.56900019999998,62.69229889
SKK, Shaktoolik Airport,-161.223999,64.37110138
SVA, Savoonga Airport,-170.4929962,63.68640137
UNK, Unalakleet Airport,-160.798996,63.88840103
WAA, Wales Airport,-168.095,65.62259300000001
WBB, Stebbins Airport,-162.278056,63.51583299999999
WLK, Selawik Airport,-159.98599240000001,66.60009766
WMO, White Mountain Airport,-163.4129944,64.68920136
HYA, Barnstable Municipal-Boardman/Polando Field,-70.28040314,41.66930008
TPA, Tampa International,-82.53320313,27.97550011
SIT, Sitka Rocky Gutierrez,-135.36199950000002,57.04710007
EDA, Edna Bay Airport,-133.6632433,
KPB, Point Baker Airport,-133.6225,56.351943999999996
KTB, Thorne Bay Seaplane Base,-132.536667,55.688056
WFB, Ketchikan Waterfront Seaplane Base,-131.663333,55.344443999999996
WWP, Whale Pass Airport,-133.121667,56.116389
YQQ, Comox Airport,-124.887001,49.71080017
HNL, Daniel K Inouye International,-157.924228,21.32062
MTH, The Florida Keys Marathon International,-81.051399,24.726101
OPF, Miami Opa Locka Executive,-80.278397,25.906999999999996
TN8, John C Tune,-86.88638784,
BDL, Bradley International,-72.68319702,41.93889999
RSW, Southwest Florida International,-81.75520325,26.53619957
PHL, Philadelphia International,-75.2410965,39.87189865
BHM, Birmingham-Shuttlesworth International,-86.75350189,33.56290054
BOS, Logan International,-71.00520325,42.36429977
PHX, Phoenix Sky Harbor International,-112.012001,33.43429947
ACT, Waco Regional,-97.23049927,31.61129951
EMK, Emmonak Airport,-164.49099730000003,62.78609848
FAI, Fairbanks International,-147.85600280000003,64.81510162
FYU, Fort Yukon Airport,-145.25,66.57150269
KAL, Kaltag Airport,-158.74099730000003,64.31909943
KYU, Koyukuk Airport,-157.727005,64.87609863
NUL, Nulato Airport,-158.074005,64.729301
KTN, Ketchikan International,-131.7140045,55.35559845
PSG, Petersburg James A Johnson,-132.9450073,56.80170059
AGN, Angoon Seaplane Base,-134.58500700000002,57.503601
BET, Bethel Airport,-161.8379974,60.77980042
CHU, Chuathbaluk Airport,-159.216003,61.579102
KKI, Akiachak Airport,-161.426944,60.906110999999996
KUK, Kasigluk Airport,-162.5240021,60.87440109
KWT, Kwethluk Airport,-161.44400019999998,60.79029846
OOK, Toksook Bay,-165.0870056,60.54140091
PKA, Napaskiak Airport,-161.7779999,60.70289993
PTU, Platinum Airport,-161.82000730000001,59.01139832
ENA, Kenai Municipal,-151.24499509999998,60.57310104
HOM, Homer Airport,-151.477005,59.64559937
PGM, Port Graham Airport,-151.8286652,
SOV, Seldovia Airport,-151.7039948,59.44240189
A43, Trident Basin Seaplane Base,-152.3910065,
KLN, Larsen Bay Airport,-153.9779968,57.53509903
KZB, Zachar Bay Airport,-153.75,57.55
OLH, Old Harbor Airport,-153.269722,57.218056000000004
KXA, Kasaan Seaplane Base,-132.3975,
CEM, Central Airport,-144.78300480000001,65.57379913
IRC, Circle City,-144.076008,65.83049799999999
VEE, Venetie Airport,-146.36599730000003,67.00869751
AKN, King Salmon Airport,-156.6490021,58.67679977
IGG, Igiugig Airport,-155.90199280000002,59.32400131
KCG, Chignik Bay Airport,-158.590833,56.317778000000004
KCL, Chignik Lagoon Airport,-158.534167,56.311111
KCQ, Chignik Lake,-158.77527800000001,56.255
KKH, Kongiganak Airport,-162.8809967,59.96080017
KNW, New Stuyahok Airport,-157.3280029,59.44990158
KWK, Kwigillingok Airport,-163.169005,59.876499
NME, Nightmute Airport,-164.701004,60.47100067
NUP, Nunapitchuk Airport,-162.439167,60.905832999999994
PIP, Pilot Point Airport,-157.5720062,57.58039856
PTH, Port Heiden Airport,-158.6329956,56.95909882
TNK, Tununak Airport,-165.27166699999998,60.575556000000006
UGS, Ugashik Airport,-157.4009501,
TKJ, Tok Junction,-142.9539948,63.32949829
SKW, Skwentna Airport,-151.1879783,
LAS, McCarran International,-115.15200039999999,36.08010101
CKD, Crooked Creek Airport,-158.135,61.867778
GNU, Goodnews,-161.5775,59.1175
HCR, Holy Cross Airport,-159.7749939,62.18830109
HPB, Hooper Bay Airport,-166.1470032,61.52389908
HSL, Huslia Airport,-156.3509979,65.69789886
KGX, Grayling Airport,-160.065,62.89444399999999
KPN, Kipnuk Airport,-164.03100590000003,59.93299866
MLL, Marshall Don Hunter Sr.,-162.026001,61.86429977
MOU, Mountain Village Airport,-163.6820068,62.09540176
NUI, Nuiqsut Airport,-151.0059967,70.20999908
PIZ, Point Lay LRRS,-163.00500490000002,69.73290253
PQS, Pilot Station Airport,-162.899444,61.93444399999999
SMK, St. Michael Airport,-162.1100006,63.49010086
TLT, Tuluksak Airport,-160.96944399999998,61.09694399999999
WTL, Tuntutuliak Airport,-162.666944,60.335278
RSN, Ruston Regional,-92.58902109999998,
YIP, Willow Run,-83.53040314,42.23789978
APA, Centennial,-104.84899899999999,39.57009888
BUR, Bob Hope,-118.35900120000001,34.20069885
HHR, Jack Northrop Field/Hawthorne Municipal,-118.334999,33.922798
LGB, Long Beach Airport,-118.15200039999999,33.81769943
ONT, Ontario International,-117.60099790000001,34.05599976
TKF, Truckee Tahoe,-120.1399994,39.31999969
VNY, Van Nuys Airport,-118.4899979,34.20980072
YAK, Yakutat Airport,-139.66000369999998,59.50329971
ELM, Elmira/Corning Regional,-76.89160156,42.15990067
JAX, Jacksonville International,-81.68789673,30.49410057
RIC, Richmond International,-77.31970215,37.50519943
SCE, University Park,-77.84870148,40.84930038
PBI, Palm Beach International,-80.09559631,26.68320084
MYK, May Creek Airport,-142.6875629,
BGR, Bangor International,-68.82810211,44.80739975
BNA, Nashville International,-86.67819977,36.12450027
CAK, Akron-Canton Regional,-81.44219971,40.91609955
CVG, Cincinnati/Northern Kentucky International,-84.6678009,39.04880142
EWR, Newark Liberty International,-74.16870117,40.69250107
GRR, Gerald R. Ford International,-85.52279663,42.88079834
LEX, Blue Grass,-84.60590363,38.03649902
LIT, Bill and Hillary Clinton Nat Adams Field,-92.22429657,34.72940063
MEM, Memphis International,-89.97669983,35.04240036
PVD, Theodore Francis Green State,-71.42040300000001,41.732601
SAV, Savannah/Hilton Head International,-81.20210266,32.12760162
SDF, Louisville Muhammad Ali International,-85.736,38.1744
TUL, Tulsa International,-95.88809967,36.19839859
DFW, Dallas/Fort Worth International,-97.038002,32.896801
MSN, Dane County Regional-Truax Field,-89.33750153,43.13990021
PDX, Portland International,-122.59799960000001,45.58869934
PSC, Tri Cities,-119.1190033,46.26470184
SAT, San Antonio International,-98.46980286,29.53370094
SBA, Santa Barbara Municipal,-119.8399963,34.42620087
ILI, Iliamna Airport,-154.9109955,59.75439835
KNK, Kokhanok Airport,-154.79674939999998,
NNL, Nondalton Airport,-154.8390045,59.98020172
PTA, Port Alsworth Airport,-154.325863,60.20168100000001
ABQ, Albuquerque International Sunport,-106.609001,35.040199
AMA, Rick Husband Amarillo International,-101.706001,35.219398
ATL, Hartsfield-Jackson Atlanta International,-84.428101,33.6367
BOI, Boise Air Terminal,-116.223,43.5644
BUF, Buffalo Niagara International,-78.73220062,42.94049835
BWI, Baltimore/Washington International Thurgood Marshall,-76.668297,39.1754
CHS, Charleston AFB/International,-80.04049683,32.89860153
CLE, Cleveland-Hopkins International,-81.84980011,41.4117012
CLT, Charlotte Douglas International,-80.94309998,35.21400070000001
CMH, John Glenn Columbus International,-82.891899,39.998001
CRP, Corpus Christi International,-97.50119781,27.77039909
DCA, Ronald Reagan Washington National,-77.037697,38.8521
DEN, Denver International,-104.6729965,39.86169815
DSM, Des Moines International,-93.6631012,41.5340004
DTW, Detroit Metro Wayne County,-83.35340118,42.21239853
ECP, Northwest Florida Beaches International,-85.79541400000001,30.357105999999998
ELP, El Paso International,-106.37799840000002,31.80719948
FLL, Fort Lauderdale-Hollywood International,-80.152702,26.072599
GEG, Spokane International,-117.5339966,47.61989975
GSP, Greenville-Spartanburg International,-82.21890259,34.89569855
IND, Indianapolis International,-86.294403,39.7173
ISP, Long Island MacArthur,-73.10019684,40.79520035
BHD, Belfast City,-5.872499942999999,54.61809921
LBB, Lubbock Preston Smith International,-101.822998,33.663601
MAF, Midland International Air and Space Port,-102.2020035,31.94249916
MDW, Chicago Midway International,-87.752403,41.785999
MKE, General Mitchell International,-87.89659882,42.94720078
MSP, Minneapolis-St Paul International,-93.221802,44.882
MSY, Louis Armstrong New Orleans International,-90.25800323,29.99340057
OAK, Metropolitan Oakland International,-122.221001,37.721298
OMA, Eppley Airfield,-95.89409599999999,41.3032
ORF, Norfolk International,-76.20120239,36.89459991
PIT, Pittsburgh International,-80.23290253,40.49150085
PWM, Portland International Jetport,-70.30930328,43.64619827
RDU, Raleigh-Durham International,-78.78749847,35.87760162
RNO, Reno/Tahoe International,-119.7679977,39.49909973
ROC, Greater Rochester International,-77.67240143,43.1189003
SEA, Seattle/Tacoma International,-122.308998,47.449001
SFO, San Francisco International,-122.375,37.61899948
SLC, Salt Lake City International,-111.97799679999999,40.78839874
SMF, Sacramento International,-121.5910034,38.69540024
TUS, Tucson International,-110.9410019,32.11610031
YKA, Kamloops Airport,-120.4440002,50.70220184
BFI, Boeing Field/King County International,-122.302002,47.52999878
NCE, Nice Cote D Azur,7.215869904,43.65840149
SGD, Sonderborg Airport,9.791729927,54.96440125
PPG, Pago Pago International,-170.71000669999998,-14.33100033
BMA, Bromma,17.94169998,59.35440063
BQH, Biggin Hill,0.032499999,51.33079910000001
CIW, Canouan Airport,-61.3424,12.699000000000002
FRG, Republic,-73.41339874,40.72880173
HEL, Helsinki Vantaa,24.963300699999998,60.31719971
LIN, Milano Linate,9.27674,45.445099
MRS, Marseille Provence,5.221424103,43.43927192
NAS, Lynden Pindling International,-77.46620178,25.03899956
CHA, Lovell Field,-85.20379639,35.03530121
CPS, Bi-State Parks,-90.1562211,38.5707244
LBG, Paris Le Bourget,2.441390038,48.9693985
MAD, Adolfo Suarez Madrid Barajas,-3.56264,40.471926
MIA, Miami International,-80.29060364,25.79319954
PDK, Dekalb Peachtree,-84.30200195,33.87559891
PSP, Palm Springs International,-116.50700379999999,33.82970047
SCF, Scottsdale,-111.9110031,33.6228981
TLH, Tallahassee International,-84.35030365,30.39649963
EGE, Eagle County Regional,-106.9179993,39.64260101
ORL, Executive,-81.332901,28.5455
SJO, Juan Santamaria International,-84.20880127,9.993860245
SXM, Princess Juliana International,-63.10889816,18.04100037
TMB, Miami Executive,-80.43280029,25.64789963
YVR, Vancouver International,-123.1839981,49.19390106
SRQ, Sarasota/Bradenton International,-82.55439758,27.39539909
MEX, Licenciado Benito Juarez International,-99.072098,19.4363
CPX, Benjamin Rivera Noriega,-65.304324,18.313289
VQS, Antonio Rivera Rodriguez,-65.42269897,18.11580086
MRY, Monterey Regional,-121.84300230000001,36.587001799999996
MCO, Orlando International,-81.30899811,28.42939949
AUA, Reina Beatrix International,-70.015198,12.5014
CUN, Cancun International,-86.87709808,21.03650093
PTY, Tocumen International,-79.38349915,9.071359634
EIS, Terrance B Lettsome,-64.54299927,18.44479942
JRV, Jose Aponte de la Torre,-4.701135,
STT, Cyril E King,-64.9733963,18.33729935
ASE, Aspen Pitkin County Sardy Field,-106.8690033,39.22320175
BFL, Meadows Field,-119.0569992,35.43360138
CLM, William R. Fairchild International,-123.5,48.12020111
ANU, V C Bird International,-61.792702,17.1367
AUG, Augusta State,-69.79730225,44.320598600000004
B21, Sugarloaf Regional,-123.6035635,
BVY, Beverly Regional,-70.91649628,42.58420181
CDW, Essex County,-74.28140259,40.87519836
DXR, Danbury Municipal,-73.48220062,41.37149811
GAI, Montgomery County Airpark,-77.16600037,39.16830063
LRM, Casa de Campo International,-68.91179657,18.45070076
MMU, Morristown Municipal,-74.41490173,40.79940033
NPT, Newport State,-71.3137707,
OXC, Waterbury Oxford,-73.1352005,41.47859955
SBH, Saint Barthelemy Airport,-62.84360123,17.90439987
SYR, Syracuse Hancock International,-76.10630035,43.11119843
BFM, Mobile Downtown,-88.06809998,30.62680054
OGG, Kahului Airport,-156.429993,20.8986
POP, Gregorio Luperon International,-70.56999969,19.75790024
ASD, Fresh Creek,-77.79560089,24.69790077
BS3, Baker Bay Airport,-124.00515790000001,
MHH, Leonard M Thompson International,-77.08350300000001,26.5114
ANC, Ted Stevens Anchorage International,-149.9960022,61.17440033
GAM, Gambell Airport,-171.7330017,63.76679993
GLV, Golovin Airport,-163.0070038,64.55049896
KKA, Koyuk Alfred Adams,-161.154007,64.93949889999999
KTS, Brevig Mission Airport,-166.4660034,65.33129883
OME, Nome Airport,-165.44500730000001,64.5121994
PEC, Pelican Seaplane Base,-136.236389,57.955278
HYG, Hydaburg Seaplane Base,-132.8280029,55.20629883
PPV, Port Protection Airport,-133.61,56.328889000000004
WHD, Hyder Seaplane Base,-130.006667,55.903332999999996
WRG, Wrangell Airport,-132.36999509999998,56.48429871
YYJ, Victoria International,-123.4260025,48.64690018
HBG, Hattiesburg Bobby L. Chain Municipal,-89.25279999,31.26479912
MQY, Smyrna Airport,-86.52010345,36.00899887
SWF, New York Stewart International,-74.10479736,41.504100799999996
UGN, Waukegan National,-87.86789703,42.42219925
JNU, Juneau International,-134.576004,58.35499954
HUS, Hughes Airport,-154.26300049999998,66.04109955
BTT, Bettles Airport,-151.529007,66.91390228
TAL, Ralph M Calhoun Memorial,-152.07583300000002,65.179556
WBQ, Beaver Airport,-147.4069977,66.36219788
ELV, Elfin Cove Seaplane Base,-136.3470001,58.19520187
AKI, Akiak Airport,-161.23100280000003,60.9029007
KWN, Quinhagak Airport,-161.845,59.7551
SXP, Nunam Iqua,-164.847778,62.520556000000006
ADQ, Kodiak Airport,-152.4940033,57.75
DGB, Danger Bay Airport,-152.75,
KOZ, Ouzinkie Airport,-152.50051100000002,57.922876
KPR, Port Williams Airport,-152.582222,58.49
KWP, West Point Village,-153.548889,57.77
KYK, Karluk Airport,-154.4499969,57.56710052
ORI, Port Lions Airport,-152.846111,57.885278
SVS, Stevens Village Airport,-149.054444,66.016944
DLG, Dillingham Airport,-158.50500490000002,59.04470062
EHM, Cape Newenham LRRS,-162.06300349999998,58.64640045
SCM, Scammon Bay Airport,-165.5709991,61.84529877
SNP, St. Paul Island,-170.22000119999998,57.16730118
WWT, Newtok Airport,-164.64111100000002,60.939167000000005
CKX, Chicken Airport,-141.952838874815,
KEK, Ekwok Airport,-157.471111,59.35694399999999
KMO, Manokatak Seaplane Base,-159.0500031,58.99020004
AZI, Al Bateen Executive,54.45809937,24.42830086
NUE, Nuernberg,11.078056,49.498699
CYF, Chefornak Airport,-164.2859955,60.14920044
SCC, Deadhorse Airport,-148.46499630000002,70.19470215
ERI, Erie International/Tom Ridge Field,-80.17386675,42.08312701
HVN, Tweed New Haven,-72.88680267,41.26369858
OCA, Ocean Reef Club,-80.27480316,25.3253994
YOW, Ottawa Macdonald Cartier International,-75.66919708,45.32249832
YUL, Pierre Elliott Trudeau International,-73.74079895,45.47060013
CCR, Buchanan Field,-122.0569992,37.98970032
OXR, Oxnard,-119.2070007,34.20080185
SAC, Sacramento Executive,-121.49299620000001,38.51250076
SMO, Santa Monica Municipal,-118.45099640000001,34.01580048
PQI, Presque Isle International,-68.0447998,46.68899918
FAR, Hector International,-96.81580353,46.92070007
SJD, Los Cabos International,-109.7210007,23.15180016
HSV, Huntsville International-Carl T Jones Field,-86.77510071,34.6371994
PUB, Pueblo Memorial,-104.49700159999999,38.28910065
YWG, James Armstrong Richardson International,-97.23989868,49.90999985
KLL, Levelock Airport,-156.858611,59.12805600000001
DAL, Dallas Love Field,-96.851799,32.847099
HRL, Valley International,-97.65440369,26.22850037
ICT, Wichita Dwight D Eisenhower National,-97.433098,37.649899
FRA, Frankfurt Main,8.570556,50.033333
BGI, Grantley Adams International,-59.49250031,13.07460022
MCI, Kansas City International,-94.713898,39.2976
OKC, Will Rogers World,-97.60070038,35.39310074
PNS, Pensacola International,-87.18659973,30.47340012
SNA, John Wayne Airport-Orange County,-117.86799620000001,33.67570114
STL, St Louis Lambert International,-90.370003,38.748697
CPH, Kastrup,12.65600014,55.61790085
FAB, Farnborough Airport,-0.776332974,51.2757988
LTN, London Luton,-0.368333012,51.87469864
SNN, Shannon Airport,-8.92482,52.702
APC, Napa County,-122.280998,38.2132
BMI, Central Il Regional Airport at Bloomington,-88.91590118,40.47710037
DPA, Du Page County,-88.24859619,41.90779877
JAC, Jackson Hole,-110.737999,43.6072998
KOA, Ellison Onizuka Kona International at Keahole,-156.045603,19.738782999999998
MDT, Harrisburg International,-76.76339722,40.19350052
TTN, Trenton Mercer,-74.81349945,40.27669907
GGT, Exuma International,-75.87799835,23.56259918
BGD, Hutchinson County,-101.3939972,35.70090103
BTV, Burlington International,-73.15329742,44.47190094
HGR, Hagerstown Regional-Richard A. Henson Field,-77.72949982,39.707901
TRI, Tri Cities,-82.40740100000001,36.475201
SFB, Orlando Sanford International,-81.23750305,28.77759933
KQA, Akutan Airport,-165.7788956,54.13377044
PHO, Point Hope Airport,-166.799,68.3488
OBU, Kobuk Airport,-156.8970032,66.91230011
DOF, Dora Bay Airport,-132.2666667,
MTM, Metlakatala,-131.578003,55.131001
UST, Northeast Florida Regional,-81.339798,29.9592
KBC, Birch Creek Airport,-145.815319,66.25670799999999
KLW, Klawock Airport,-133.076004,55.57920074
ATT, Atmautluak Airport,-97.7666,30.31666
WNA, Napakiak Airport,-161.9790039,60.69029999
KKB, Kitoi Bay Airport,-152.370556,58.190833
TWA, Twin Hills Airport,-160.275,59.07444399999999
CZN, Chisana Airport,-142.048333,62.071111
TOG, Togiak Airport,-160.3970032,59.05279922
AAN, Al Ain International,55.60919952,24.26169968
KEF, Keflavik International,-22.60560036,63.98500061
BTI, Barter Island Airport,-143.5820007,70.13400269
RBY, Ruby Airport,-155.47000119999998,64.72720337
RDV, Red Devil Airport,-157.350278,61.788056000000005
SLQ, Sleetmute Airport,-157.1660004,61.70050049
SRV, Stony River Airport,-156.591111,61.7875
VAK, Chevak Airport,-165.6005,61.5409
APF, Naples Municipal,-81.77529907,26.15259933
CKV, Outlaw Field,-87.41500092,36.62189865
FXE, Fort Lauderdale Executive,-80.17070007,26.19729996
2CA, Delano Municipal,-119.23699951171876,
SNS, Salinas Municipal,-121.6060028,36.66279984
SKB, Robert L Bradshaw International,-62.71870041,17.31119919
MXY, McCarthy Airport,-142.9030737,61.4370608
FNT, Bishop International,-83.74359894,42.965400700000004
PDB, Pedro Bay Airport,-154.1325,59.782222
MWH, Grant County International,-119.3199997,47.20769882
BKL, Burke Lakefront,-81.6832962,41.51750183
BZN, Bozeman Yellowstone International,-111.15299990000001,45.77750015
JRA, West 30th Street Heliport,-74.007103,40.754501
RIL, Rifle Garfield County,-107.726997,39.526299
PLS, Providenciales International,-72.26589966,21.77359962
STS, Charles M. Schulz - Sonoma County,-122.8130035,38.50899887
FOK, Francis S. Gabreski,-72.63179779,40.84370041
LYH, Lynchburg Regional/Preston Glenn Field,-79.20040131,37.3266983
OWD, Norwood Memorial,-71.17289734,42.19049835
TVI, Thomasville Regional,-83.88130188,30.90159988
VSF, Hartness State,-72.517222,43.343333
YQB, Quebec Jean Lesage International,-71.393303,46.7911
DSI, Destin Executive,-86.47149658,30.40010071
CXY, Cat Cay Airport,-76.85317162803,
FPO, Grand Bahama International,-78.69560242,26.55870056
PPC, Prospect Creek Airport,-150.64399719999997,66.81410217
TLA, Teller Airport,-166.3390045,65.24040222
GST, Gustavus Airport,-135.7070007,58.42530060000001
CDB, Cold Bay Airport,-162.7250061,55.20610046
DAB, Daytona Beach International,-81.058098,29.179899
SUA, Witham Field,-80.22109985,27.18169975
ARC, Arctic Village Airport,-145.578995,68.1147
EXI, Excursion Inlet Seaplane Base,-135.449167,58.420556000000005
HYL, Hollis Seaplane Base,-132.64611100000002,55.481667
ZXM, Saltery Cove Airport,-132.3291667,
RMP, Rampart Airport,-150.14083300000001,65.507778
DUT, Unalaska Airport,-166.5440063,53.90010071
KPV, Perryville Airport,-159.162993,55.905998
WSN, South Naknek 2,-157.0079956,58.70339966
TYE, Tyonek Airport,-151.138056,61.07666700000001
IAH, George Bush Intercontinental/Houston,-95.34140015,29.984399800000002
CPR, Casper/Natrona County International,-106.46399699999999,42.908001
ILM, Wilmington International,-77.90260315,34.27059937
SLK, Adirondack Regional,-74.20619965,44.38529968
YLW, Kelowna Airport,-119.37799840000002,49.95610046
AZ3, Glendale Municipal,-112.29499816894531,
NUQ, Moffett Federal Airfield,-122.04900400000001,37.4161
CDV, Merle K Mudhole Smith,-145.4779968,60.49179839999999
GSO, Piedmont Triad International,-79.93730164,36.09780121
DUB, Dublin Airport,-6.27007,53.421299
LPA, Gran Canaria,-15.38659954,27.93190002
SVD, E. T. Joshua,-61.149944999999995,13.156695000000001
ADS, Addison,-96.83640289,32.96860123
CLD, McClellan-Palomar,-117.27999879999999,33.12829971
ISM, Kissimmee Gateway,-81.43710327,28.28980064
LIH, Lihue Airport,-159.3390045,21.97599983
TXK, Texarkana Regional-Webb Field,-93.99099731,33.45370102
AZS, El Catey International,-69.74199677,19.2670002
MAZ, Eugenio Maria de Hostos,-67.14849854,18.25569916
PGO, Stevens Field,-107.057155399199,
MOB, Mobile Regional,-88.24279785,30.69120026
GUM, Guam International,144.7960052,13.48340034
BS1, Goat Cay Airport,9.2814924,
GHB, Governors Harbour Airport,-76.33100128,25.28470039
LUR, Cape Lisburne LRRS,-166.1100006,68.87509918
PTD, Port Alexander Airport,-134.6470219,
CGA, Craig Seaplane Base,-133.14777800000002,55.478889
LKE, Lake Union Terminal,-122.339,47.629
MGM, Montgomery Regional,-86.39399719,32.30059814
MHM, Minchumina Airport,-152.30200200000002,
EEK, Eek Airport,-162.0438843,60.21367264
CZF, Cape Romanzof LRRS,-166.03900149999998,61.78030014
KGK, Koliganek Airport,-157.25900269999997,59.72660065
SQA, Santa Ynez Airport,-120.07599640000001,34.60680008
TYS, McGhee Tyson,-83.99400329999999,35.81100082
GJT, Grand Junction Regional,-108.52700039999999,39.12239838
STI, Cibao International,-70.60469818,19.40609932
SUN, Friedman Memorial,-114.2959976,43.50439835
VIE, Vienna International,16.56970024,48.11029816
VKO, Vnukovo,37.26150131,55.59149933
FDH, Friedrichshafen Airport,9.511489868,47.67129898
STP, St. Paul Downtown Holman Field,-93.05999756,44.93450165
CSL, Cabo San Lucas International,-109.936996,
LIR, Daniel Oduber International,-85.544403,10.5933
PUJ, Punta Cana International,-68.36340332,18.56739998
BQN, Rafael Hernandez,-67.12940216,18.49489975
PVR, Licenciado Gustavo Diaz Ordaz International,-105.2539978,20.68009949
ABE, Lehigh Valley International,-75.44080353,40.65209961
TEX, Telluride Regional,-107.90799709999999,37.9538002
BTR, Baton Rouge Metropolitan/Ryan Field,-91.149597,30.533199
BIM, Bimini International,-79.26470184,25.69989967
PIE, St Pete Clearwater International,-82.68740082,27.91020012
WTK, Noatak Airport,-162.9750061,67.56610107
SGF, Springfield-Branson National,-93.38860321,37.24570084
HNS, Haines Airport,-135.5240021,59.24380112
BCT, Boca Raton Public,-80.10769653,26.37849998
TBN, Waynesville-St. Robert Regional Forney Field,-92.14070129,37.74160004
USA, Concord Padgett Regional,-80.709099,35.387798
HNH, Hoonah Airport,-135.410111,58.0961
UGI, Uganik Airport,-153.32037549999998,
EGX, Egegik Airport,-157.375,58.1855011
JHM, Kapalua Airport,-156.67300419999998,20.96290016
ATK, Atqasuk Edward Burnell Sr. Memorial,-157.4360046,70.46730042
GND, Maurice Bishop International,-61.78620148,12.00419998
DQL, Lake Hood,-149.965442,
STR, Stuttgart Airport,9.221960068,48.68989944
ZRH, Zurich Airport,8.54917,47.464698999999996
SDM, Brown Field Municipal,-116.9800034,32.57229996
YCD, Nanaimo Airport,-123.86986259999999,49.05497022
BHX, Birmingham Airport,-1.7480299469999998,52.45389938
TLS, Toulouse Blagnac,1.36382,43.629101
USH, Islas Malvinas,-68.2958,-54.8433
EYW, Key West International,-81.75959778,24.55610085
SPI, Abraham Lincoln Capital,-89.67790222,39.84410095
RDM, Roberts Field,-121.15000149999999,44.254100799999996
ZXU, Quonset State,-71.412101745605,
KVL, Kivalina Airport,-164.56300349999998,67.73619843
TNC, Tin City LRRS,-167.9219971,65.56310272
KAE, Kake Seaplane Base,-133.945556,56.97305600000001
AXA, Clayton J Lloyd,-63.055099,18.2048
GA9, Cartersville Airport,-84.84870147705078,
MTY, General Mariano Escobedo International,-100.10700229999999,25.7784996
ORD, Chicago O'Hare International,-87.9048,41.9786
MKK, Molokai,-157.095993,21.1529007
AIN, Wainwright Airport,-159.99499509999998,70.63800049
BKC, Buckland Airport,-161.1490021,65.9815979
YQU, Grande Prairie Airport,-118.8850021,55.17969894
CXL, Calexico International,-115.51300049999999,32.66949844
SQL, San Carlos Airport,-122.25,37.51190186
PLN, Pellston Regional Airport of Emmet County,-84.79669952,45.57089996
C01, Camarillo Airport,6.7634509000000005,
SGR, Sugar Land Regional,-95.65650177,29.62229919
TSS, East 34th Street Heliport,-73.971944,40.7425
GCM, Owen Roberts International,-81.35769653,19.2928009
BZE, Philip S. W. Goldson International,-88.30819702,17.53910065
SAP, Ramon Villeda Morales International,-87.923599,15.4526
MTJ, Montrose Regional,-107.8939972,38.50979996
LCI, Laconia Municipal,-71.41256947405859,
MVL, Morrisville Stowe State,-72.61399841,44.534599299999996
ELH, North Eleuthera Airport,-76.6835022,25.47489929
FRD, Friday Harbor Airport,-123.02400209999999,48.52199936
SDP, Sand Point,-160.522995,55.31499863
GRB, Green Bay Austin Straubel International,-88.12960052,44.48509979
AET, Allakaket Airport,-152.621994,66.55180359
TKE, Tenakee Airport,-135.218333,57.779722
MLY, Manley Hot Springs Airport,-150.64399719999997,64.99759674
NLG, Nelson Lagoon Airport,-161.16000369999998,56.00749969
BVU, Beluga Airport,-151.04400634799998,
1CA, Rio Vista Municipal,-74.10690079999999,
TVL, Lake Tahoe Airport,-119.9950027,38.89390182
GVA, Geneva Airport,6.108950137999999,46.23809814
PAE, Snohomish County,-122.28199769999999,47.90629959
AGS, Augusta Regional at Bush Field,-81.96450043,33.36989975
TIJ, General Abelardo L. Rodriguez International,-116.97000120000001,32.54109955
ZLO, Playa de Oro International,-104.5589981,19.14480019
VRB, Vero Beach Regional,-80.417901,27.6556
NSB, North Seaplane Base,-79.25,25.767
DWH, David Wayne Hooks Memorial,-95.55280304,30.0618
AKP, Anaktuvuk Pass Airport,-151.7429962,68.13359833
CIK, Chalkyitsik Airport,-143.7400055,66.64499664
STG, St. George Island Airport,-169.6620026,56.57830048
CLP, Clarks Point Airport,-158.529007,58.83369827
BRW, Wiley Post/Will Rogers Memorial,-156.766008,71.285402
OGD, Ogden-Hinckley,-112.012001,41.19589996
PEK, Capital International,116.58499909999999,40.08010101
APN, Alpena County Regional,-83.56030273,45.07809829999999
KFP, False Pass Airport,-163.41000369999998,54.84740067
SEE, Gillespie Field,-116.97200009999999,32.82619858
AVP, Wilkes Barre Scranton International,-75.7233963,41.33850098
MBJ, Sangster International,-77.91339874,18.50370026
WJF, General William J. Fox Airfield,-118.21900179999999,34.74110031
HKY, Hickory Regional,-81.38950348,35.74110031
IKO, Nikolski AS,-168.848999,52.94160079999999
VCV, Southern California Logistics,-117.38300320000002,34.59749985
TIQ, Tinian International,145.6190033,14.99919987
AKB, Atka Airport,-174.2059937,52.22029877
MEI, Key Field,-88.75189972,32.33259964
PVU, Provo Municipal,-111.72299960000001,40.21920013
RIW, Riverton Regional,-108.45999909999999,43.06420136
SHR, Sheridan County,-106.9800034,44.76919937
TUP, Tupelo Regional,-88.76989746,34.26810074
HKB, Healy River,-148.97052140000002,
DUS, Duesseldorf,6.766780000000001,51.289501
SVC, Grant County,-108.156,32.6365
SMN, Lemhi County,-113.8809967,45.12379837
KVC, King Cove Airport,-162.2660065,55.11629868
MMH, Mammoth Lakes Airport,-118.83799740000002,37.62409973
TCB, Treasure Cay Airport,-77.39129639,26.74530029
PIA, General Downing - Peoria International,-89.69329834,40.66419983
GFK, Grand Forks International,-97.176102,47.949298999999996
MNT, Minto Al Wright,-149.37,65.14361099999999
TGU, Toncontin International,-87.21720123,14.06089973
ALO, Waterloo Regional,-92.40029907,42.55709839
SPN, Francisco C. Ada Saipan International,145.729004,15.119000000000002
HTS, Tri-State/Milton J. Ferguson Field,-82.55799866,38.36669922
GIG, Galeao Antonio Carlos Jobim International,-43.25055695,-22.80999947
SBN, South Bend International,-86.31729889,41.70869827
LBL, Liberal Mid-America Regional,-100.95999909999999,37.04420089999999
ESD, Orcas Island,-122.9100037,48.70819855
BWG, Bowling Green-Warren County Regional,-86.41970062,36.96450043
KEB, Nanwalek Airport,-151.924672013614,
DAY, James M Cox/Dayton International,-84.2193985,39.90240097
JAN, Jackson Medgar Wiley Evers International,-90.07589722,32.31119919
MRI, Merrill Field,-149.84399409999997,61.21350098
AND, Anderson Regional,-82.70939636,34.49459839
IFP, Laughlin/Bullhead International,-114.56,35.1574
AKK, Akhiok Airport,-154.18299869999998,56.93870163
NEV, Vance Winkworth Amory,-62.58990097,17.20569992
GNV, Gainesville Regional,-82.27179718,29.69009972
MLU, Monroe Regional,-92.03769684,32.51089859
PIB, Hattiesburg-Laurel Regional,-89.33709717,31.46710014
EVV, Evansville Regional,-87.53240204,38.03699875
CKB, North Central West Virginia,-80.22810364,39.29660034
FCA, Glacier Park International,-114.2559967,48.3105011
SBP, San Luis County Regional,-120.6419983,35.23680115
7AK, Akun Airport,-165.607566833,
OFU, Ofu Airport,-169.67,-14.184444000000001
COS, City of Colorado Springs Municipal,-104.70099599999999,38.805801
GTR, Golden Triangle Regional,-88.59140015,33.45029831
MLB, Melbourne International,-80.64530182,28.10280037
LAF, Purdue University,-86.93689728,40.41230011
LAN, Capital Region International,-84.58740234,42.77870178
CID, The Eastern Iowa,-91.71080017,41.88470078
AZO, Kalamazoo/Battle Creek International,-85.55210114,42.23490143
GPT, Gulfport-Biloxi International,-89.07009888,30.40730095
TZN, Congo Town,-77.5913170475257,
TEK, Tatitlek Airport,-146.691111,60.8725
INT, Smith Reynolds,-80.22200012,36.13370132
CRW, Yeager,-81.59320068,38.37310028
DVL, Devils Lake Regional,-98.90879822,48.11420059
HYS, Hays Regional,-99.27320099,38.84220123
AHN, Athens/Ben Epps,-83.32630157,33.94860077
GUC, Gunnison-Crested Butte Regional,-106.9329987,38.53390121
CMI, University of Illinois/Willard,-88.27809906,40.03919983
MHK, Manhattan Regional,-96.67079926,39.14099884
TBU, Fua Amotu International,-175.1499939,-21.24119949
CXH, Coal Harbour Seaplane Base,-123.1110001,49.29439926
CWA, Central Wisconsin,-89.66680145,44.77759933
XNA, Northwest Arkansas Regional,-94.30680100000001,36.281898
YYC, Yyc Calgary International,-114.0199966,51.11389923
CLL, Easterwood Field,-96.36380005,30.58860016
FSD, Joe Foss Field,-96.74189758,43.58200073
LNK, Lincoln Airport,-96.75920105,40.85100174
SWO, Stillwater Regional,-97.08570099,36.16120148
FTW, Fort Worth Meacham International,-97.36239599999999,32.819801
TCL, Tuscaloosa Regional,-87.61139679,33.22060013
MFR, Rogue Valley International - Medford,-122.8730011,42.37419891
FOE, Topeka Regional,-95.66359711,38.95090103
YTZ, Billy Bishop Toronto City,-79.396202,43.627499
TWF, Joslin Field - Magic Valley Regional,-114.487999,42.4818
CGI, Cape Girardeau Regional,-89.57080078,37.22529984
PAH, Barkley Regional,-88.77380371,37.06079865
MOT, Minot International,-101.2799988,48.25939941
DOM, Douglas Charles,-61.299999,15.547
CAE, Columbia Metropolitan,-81.11949921,33.93880081
ROA, Roanoke Blacksburg Regional Woodrum Field,-79.975403,37.3255
PGA, Page Municipal,-111.447998,36.92610168
QRO, Queretaro Intercontinental,-100.185997,20.6173
AOO, Altoona-Blair County,-78.31999969,40.29639816
SLP, Ponciano Arriaga International,-100.9309998,22.25429916
YEG, Edmonton International,-113.58000179999999,53.30970001
BLD, Boulder City Municipal,-114.514,35.5651
RAP, Rapid City Regional,-103.0569992,44.04529953
LNY, Lanai Airport,-156.951004,20.78560066
LUP, Kalaupapa Airport,-156.973999,21.21100044
MCW, Mason City Municipal,-93.33129883,43.15779877
MCN, Middle Georgia Regional,-83.64920044,32.69279861
MUC, Muenchen,11.7861,48.353802
SPS, Sheppard AFB/Wichita Falls Municipal,-98.49189799999999,33.9888
MYR, Myrtle Beach International,-78.92829895,33.67969894
LUK, Cincinnati Municipal Lunken Field,-84.41860199,39.10329819
EAA, Eagle Airport,-141.151001,64.77639771
PTK, Oakland County International,-83.42009735,42.66550064
CDR, Chadron Municipal,-103.0950012,42.83760071
MFE, McAllen Miller International,-98.23860168,26.17580032
COU, Columbia Regional,-92.21959686,38.81809998
KWA, Bucholz AAF,167.7319946,8.72012043
FAT, Fresno Yosemite International,-119.71800230000001,36.77619934
BLA, General Jose Antonio Anzoategui International,-64.692222,10.111111
OTP, Henri Coanda,26.085,44.5711111
CCZ, Chub Cay Airport,-77.88089752,25.41710091
MYU, Mekoryuk Airport,-166.2709961,60.37139893
AIA, Alliance Municipal,-102.8040009,42.05319977
LRD, Laredo International,-99.46160126,27.54380035
BRL, Southeast Iowa Regional,-91.12550354,40.78319931
MCE, Merced Regional/Macready Field,-120.5139999,37.28469849
PPT, Tahiti Faa'a,-149.60699499999998,-17.553698999999998
JMS, Jamestown Regional,-98.67819977,46.92969894
BRO, Brownsville South Padre Island International,-97.42590332,25.90679932
FOD, Fort Dodge Regional,-94.19259644,42.55149841
CHO, Charlottesville Albemarle,-78.45290375,38.138599400000004
RTB, Juan Manuel Galvez International,-86.523003,16.316799
NGO, Chubu Centrair International,136.80499269999999,34.85839844
FNL, Northern Colorado Regional,-105.01100000000001,40.451803999999996
FDF, Martinique Aime Cesaire,-61.00320053,14.590999599999998
GTF, Great Falls International,-111.3710022,47.48199844
VCP, Viracopos International,-47.1344986,-23.00740051
APW, Faleolo International,-172.0079956,-13.82999992
ECG, Elizabeth City CGAS/Regional,-76.17459869,36.26060104
MNZ, Manassas Regional/Harry P. Davis Field,-77.51540375,38.72140121
LCK, Rickenbacker International,-82.927803,39.813801
SJT, San Angelo Regional/Mathis Field,-100.4960022,31.35770035
MCG, McGrath Airport,-155.60600280000003,62.95289993
NRT, Narita International,140.3860016,35.76470184
KSA, Kosrae Airport,162.957993,5.35698
HRO, Boone County,-93.15470123,36.26150131
DQK, Wheeler-Sack AAF,-75.7195,
OAJ, Albert J Ellis,-77.61209869,34.82920074
TOL, Toledo Express,-83.80780029,41.58679962
ITH, Ithaca Tompkins Regional,-76.45839691,42.49100113
LHR, London Heathrow,-0.461941,51.4706
MBS, MBS International,-84.07959747,43.53290176
BEL, Val de Cans International,-48.47629929,-1.37925005
ORH, Worcester Regional,-71.87570190000001,42.26729965
ABI, Abilene Regional,-99.68190002,32.41130066
MSL, Northwest Alabama Regional,-87.61019897,34.74530029
LNS, Lancaster Airport,-76.2960968,40.12170029
AKL, Auckland International,174.7920074,-37.008098600000004
FWA, Fort Wayne International,-85.19509888,40.97850037
EUG, Mahlon Sweet Field,-123.211998,44.12459946
JLN, Joplin Regional,-94.49829865,37.15179825
GRK, Robert Gray AAF,-97.8289032,31.06719971
AMS, Schiphol,4.76389,52.308601
RFD, Chicago/Rockford International,-89.09719849,42.19540024
VSA, C. P. A. Carlos Rovirosa International,-92.81739807,17.99699974
KEH, Kenmore Air Harbor,-122.259,47.7548
BIL, Billings Logan International,-108.5429993,45.80770111
HUX, Bahias de Huatulco International,-96.26260400000001,15.7753
ABR, Aberdeen Regional,-98.42179871,45.44910049
JST, John Murtha Johnstown-Cambria County,-78.83390045,40.31610107
AEX, Alexandria International,-92.54979706,31.32740021
LBE, Arnold Palmer Regional,-79.40480042,40.27590179
SGY, Skagway Airport,-135.31599430000003,59.46009827
DBQ, Dubuque Regional,-90.70950317,42.40200043
MZT, General Rafael Buelna International,-106.26599879999999,23.16139984
DUJ, DuBois Regional,-78.8986969,41.17829895
MCK, McCook Ben Nelson Regional,-100.59200290000001,40.20629883
CTG, Rafael Nunez,-75.513,10.4424
BMG, Monroe County,-86.61669922,39.14599991
PVG, Pudong,121.8050003,31.14340019
FKL, Venango Regional,-79.86039734,41.37789917
LOS, Murtala Muhammed,3.321160078,6.577370167000001
HDN, Yampa Valley,-107.21800230000001,40.48120117
MLI, Quad City International,-90.50749969,41.44850159
CEZ, Cortez Municipal,-108.62799840000002,37.3030014
SLN, Salina Regional,-97.65219879,38.79100037
CAY, Cayenne Felix Eboue,-52.36040115,4.8198099139999995
IWD, Gogebic-Iron County,-90.13139670000001,46.527474700000006
MSO, Missoula International,-114.0910034,46.91630173
SNU, Abel Santamaria International,-79.94360352,22.49220085
AZA, Phoenix - Mesa Gateway,-111.65499879999999,33.30780029
HOW, Panama Pacifico International,-79.599632,
ZIH, Ixtapa-Zihuatanejo International,-101.4609985,17.60160065
GRI, Central Nebraska Regional,-98.30960083,40.96749878
PTP, Le Raizet,-61.531799,16.265301
PGD, Punta Gorda Airport,-81.99050140000001,26.92020035
CNM, Cavern City Air Terminal,-104.2630005,32.33750153
GLH, Greenville Mid Delta,-90.98560333,33.48289871
INL, Falls International Einarson Field,-93.40309906,48.56620026
HIB, Range Regional,-92.83899689,47.38660049
CMW, Ignacio Agramonte International,-77.84750366,21.42029953
GUA, La Aurora International,-90.527496,14.5833
BRD, Brainerd Lakes Regional,-94.13809967,46.39830017
DLH, Duluth International,-92.19360352,46.84209824
EAU, Chippewa Valley Regional,-91.48429871,44.86579895
MGW, Morgantown Municipal-Walter L. Bill Hart Field,-79.91629791,39.64289856
LWB, Greenbrier Valley,-80.39949799,37.85829926
ADK, Adak,-176.6459961,51.87799835
ISN, Sloulin Field International,-103.6419983,48.17789841
TKK, Chuuk International,151.8430023,7.461870192999999
CXF, Coldfoot Airport,-150.17611100000002,67.251389
FAQ, Fitiuta,141.960138,
CXI, Christmas Island Airport,-157.3500061,1.98616004
GDV, Dawson Community,-104.8069992,47.13869858
VCT, Victoria Regional,-96.91850281,28.8526001
RZE, Jasionka,22.018999100000002,50.11000061
LEB, Lebanon Municipal,-72.30419922,43.62609863
DEC, Decatur Airport,-88.86569977,39.83459854
BFD, Bradford Regional,-78.64009857,41.80310059
HGH, Xiaoshan,120.4339981,30.22949982
HNM, Hana Airport,-156.01400759999999,20.79560089
BKW, Raleigh County Memorial,-81.12419891,37.78730011
SIN, Singapore Changi International,103.994003,1.35019
CCS, Simon Bolivar International,-66.991222,10.601194
ELD, South Arkansas Regional at Goodwin Field,-92.81330109,33.22100067
BIS, Bismarck Municipal,-100.7460022,46.77270126
VPS, Eglin AFB Destin Fort Walton Beach,-86.525398,30.4832
PKB, Mid-Ohio Valley Regional,-81.43920135,39.34510039999999
SAL, Msgr Oscar A Romero and Galdamez International,-89.055702,13.4409
SHV, Shreveport Regional,-93.8256,32.446602
LSE, La Crosse Regional,-91.256699,43.879002
SOW, Show Low Regional,-110.0059967,34.26549912
BLI, Bellingham International,-122.538002,48.792800899999996
HVR, Havre City-County,-109.762001,48.54299927
ICN, Incheon International,126.45099640000001,37.46910095
MNL, Ninoy Aquino International,121.019997,14.5086
IRK, Kirksville Regional,-92.54489899,40.09349823
MKL, McKellar-Sipes Regional,-88.915604,35.599899
HAV, Jose Marti International,-82.40910339,22.98920059
KIN, Norman Manley International,-76.78749847,17.93569946
MSS, Massena International-Richards Field,-74.84559631,44.93579865
CTS, New Chitose,141.69200130000002,42.77519989
NAN, Nadi International,177.4429932,-17.7553997
DDC, Dodge City Regional,-99.96559906,37.76340103
ARN, Arlanda,17.91860008,59.65190125
OWB, Owensboro Daviess County Regional,-87.16680145,37.74010086
MAJ, Marshall Islands International,171.2720032,7.064760207999999
AVL, Asheville Regional,-82.54180145,35.43619919
LCY, London City,0.055277999999999994,51.505299
TAB, A N R Robinson International,-60.832199100000004,11.14970016
GDL, Miguel Hidalgo Y Costilla International,-103.310997,20.52179909
CVN, Clovis Municipal,-103.07900240000001,34.42509842
OLF, L. M. Clayton,-105.5749969,48.0945015
GGW, Wokal Field Glasgow Valley County,-106.614998,48.212502
TVF, Thief River Falls Regional,-96.18499756,48.06570053
OGS, Ogdensburg International,-75.46549988,44.68190002
MUE, Waimea-Kohala,-155.6679993,20.00130081
ATW, Appleton International,-88.51909637,44.258098600000004
RKD, Knox County Regional,-69.09919739,44.06010056
PVC, Provincetown Municipal,-70.2213974,42.07189941
SCU, Antonio Maceo International,-75.83540344,19.96980095
BHB, Hancock County-Bar Harbor,-68.36150359999999,44.45000076
UVF, Hewanorra International,-60.952599,13.7332
SGU, St George Regional,-113.510306,37.036389
RUT, Rutland - Southern Vermont Regional,-72.94960022,43.52939987
HOT, Memorial Field,-93.09619904,34.47800064
YXU, London Airport,-81.1539,43.035599
SYD, Sydney International,151.17700200000002,-33.94609833
CUR, Hato,-68.959801,12.1889
ZSA, San Salvador International,-74.52400208,24.06329918
JBR, Jonesboro Municipal,-90.64640045,35.83169937
PNI, Pohnpei International,158.2089996,6.985099792000001
CZM, Cozumel International,-86.92559814,20.5223999
SHD, Shenandoah Valley Regional,-78.89640045,38.26380157
ZCL, General Leobardo C. Ruiz International,-102.68699649999999,22.89710045
YYT, St. John's International,-52.75189972,47.61859894
ALS, San Luis Valley Regional/Bergman Field,-105.866997,37.434898
YHZ, Halifax Stanfield International,-63.50859833,44.88079834
CUL, Culiacan International,-107.47499850000001,24.76449966
MGA, Augusto Cesar Sandino International,-86.16819763,12.14150047
PDT, Eastern Oregon Regional at Pendleton,-118.8410034,45.69509888
YWH, Victoria Inner Harbour,-123.38886740000001,48.42498589
SDQ, De Las Americas International,-69.66889954,18.42970085
LFT, Lafayette Regional Paul Fournet Field,-91.98760223,30.20529938
CUU, General Roberto Fierro Villalobos International,-105.9649963,28.70289993
UIN, Quincy Regional-Baldwin Field,-91.19460297,39.94269943
OTH, Southwest Oregon Regional,-124.2460022,43.417099
BON, Flamingo International,-68.26850128,12.13099957
VDZ, Valdez Pioneer Field,-146.24800109999998,61.13389969
IPL, Imperial County,-115.5790024,32.83420181
CNY, Canyonlands Field,-109.7549973,38.75500107
PAP, Port Au Prince International,-72.29250336,18.57999992
MAN, Manchester Airport,-2.274950027,53.35369873
PEI, Matecana,-75.7395,4.81267
YXE, John G Diefenbaker International,-106.6999969,52.17079926
CEC, Jack McNamara Field,-124.23699950000001,41.78020096
BUD, Budapest Liszt Ferenc International,19.261093,47.429759999999995
EDI, Edinburgh Airport,-3.3724999430000002,55.95000076
BLR, Kempegowda International,77.706299,13.1979
MAO, Eduardo Gomes International,-60.04970169,-3.038609982
UPN, Uruapan Airport,-102.0390015,19.39669991
CLO, Alfonso Bonilla Aragon International,-76.3816,3.54322
YQR, Regina International,-104.6660004,50.43190002
YAP, Yap International,138.082993,9.49891
MWA, Veterans Airport of Southern Illinois,-89.01110077,37.75500107
BNE, Brisbane International,153.1170044,-27.38419914
BBU, Baneasa Aurel Vlaicu,26.10210037,44.50320053
RAI, Praia International,-23.49349976,14.92450047
IMT, Ford,-88.11450195,45.81840134
AMM, Queen Alia International,35.99319839,31.72260094
BDA, L. F. Wade International,-64.67870331,32.36399841
WST, Westerly State,-71.80339813,41.34960175
IAG, Niagara Falls International,-78.94619751,43.1072998
DSS, Blaise Diagne International,-17.073332999999998,14.67
CIU, Chippewa County International,-84.47239685,46.25080109
IPT, Williamsport Regional,-76.9210968,41.2417984
SDY, Sidney Richland Regional,-104.193001,47.706902
BID, Block Island State,-71.57779694,41.16809845
TVC, Cherry Capital,-85.5821991,44.74140167
FSM, Fort Smith Regional,-94.36740112,35.33660126
FAY, Fayetteville Regional/Grannis Field,-78.88030243,34.99119949
SSA, Deputado Luis Eduardo Magalhaes International,-38.32249832,-12.9086113
SVO, Sheremetyevo,37.4146,55.972599
TER, Lajes Airport,-27.090799,38.761798999999996
DRO, Durango La Plata County,-107.7539978,37.15150070000001
VEL, Vernal Regional,-109.5100021,40.4408989
CYS, Cheyenne Regional/Jerry Olson Field,-104.81199649999999,41.15570068
RAR, Rarotonga International,-159.80599980000002,-21.20269966
KRK, John Paul II - Balice,19.7848,50.077702
GYD, Heydar Aliyev International,50.04669952,40.46749878
DGO, Durango International,-104.52799990000001,24.12420082
PRC, Prescott Regional Ernest A Love Field,-112.41999820000001,34.65449905
POS, Piarco,-61.33720016,10.59539986
ACA, General Juan N Alvarez International,-99.7539978,16.75709915
CDG, Paris Charles de Gaulle,2.55,49.012798
MKG, Muskegon County,-86.23819733,43.16949844
MDE, Jose Maria Cordova,-75.4231,6.164540000000001
SAF, Santa Fe Municipal,-106.0889969,35.61709976
ROW, Roswell International Air Center,-104.53099820000001,33.30160141
FLG, Flagstaff Pulliam,-111.6709976,35.13850021
BJX, Guanajuato International,-101.481003,20.9935
LBF, North Platte Regional Airport Lee Bird Field,-100.6839981,41.12620163
PHF, Newport News/Williamsburg International,-76.49299622,37.13190079
EZE, Ministro Pistarini,-58.5358,-34.8222
MQT, Sawyer International,-87.395401,46.35359955
CDC, Cedar City Regional,-113.09899899999999,37.70100021
LAR, Laramie Regional,-105.6750031,41.31209946
EAR, Kearney Regional,-99.0068,40.727
SUX, Sioux Gateway Brig Gen Bud Day Field,-96.38439941,42.40259933
FCO, Fiumicino,12.238888900000001,41.800277799999996
RST, Rochester International,-92.5,43.90829849
RBN, Fort Jefferson Airport,-82.86667,24.616670000000003
BLV, Scott AFB/MidAmerica,-89.835197,38.5452
SMR, Simon Bolivar,-74.2306,11.1196
SCK, Stockton Metropolitan,-121.237999,37.89419937
FGI, Fagali I,-171.7400055,-13.84869957
1G4, Grand Canyon West,-113.815674,35.899904
IDA, Idaho Falls Regional,-112.070999,43.514599
CMX, Houghton County Memorial,-88.4890976,47.16839981
TAM, General Francisco Javier Mina International,-97.86589813,22.29640007
MAR, La Chinita International,-71.7278595,10.55820847
BFF, Western Neb. Regional/William B. Heilig Field,-103.5960007,41.87400055
LAW, Lawton-Fort Sill Regional,-98.41660309,34.56769943
OSL, Gardermoen,11.0502,60.121
ESC, Delta County,-87.09369659,45.72269821
ACV, California Redwood Coast Humboldt County,-124.109,40.978101
GEO, Cheddi Jagan International,-58.25410079999999,6.498549937999999
PSM, Portsmouth International at Pease,-70.82330322,43.07789993
EWN, Coastal Carolina Regional,-77.04290009,35.07300186
VER, General Heriberto Jara International,-96.18730164,19.14590073
PBG, Plattsburgh International,-73.4681015,44.65090179
HLN, Helena Regional,-111.9830017,46.60680008
EKO, Elko Regional,-115.79199979999999,40.82490158
PBC, Hermanos Serdan International,-98.37139893,19.15810013
OAX, Xoxocotlan International,-96.72660065,16.99990082
MLM, General Francisco J. Mujica International,-101.0250015,19.84989929
STC, St. Cloud Regional,-94.05989838,45.54660034
ART, Watertown International,-76.021698,43.991901399999996
DEL, Indira Gandhi International,77.103104,28.5665
DRT, Del Rio International,-100.927002,29.37420082
GGG, East Texas Regional,-94.71150208,32.38399887
CAP, Cap-Haitien International,-72.194702,19.733
TNA, Yaoqiang,117.2160034,36.85720062
BOG, El Dorado International,-74.1469,4.70159
TPE, Taiwan Taoyuan International,121.233002,25.0777
ORY, Paris Orly,2.3794444,48.7233333
MID, Licenciado Manuel Crescencio Rejon International,-89.65769959,20.93700027
MEL, Melbourne International,144.843002,-37.673302
CSX, Huanghua,113.22000120000001,28.18919945
HYD, Rajiv Gandhi International,78.42985535,17.23131752
ADD, Bole International,38.79930115,8.977890015
TRC, Torreon International,-103.4110031,25.56830025
GYE, Jose Joaquin de Olmedo International,-79.88359833,-2.15741992
DIK, Dickinson - Theodore Roosevelt Regional,-102.802002,46.79740143
AXM, El Eden,-75.7664,4.452780000000001
COD, Yellowstone Regional,-109.02400209999999,44.52019882
SMX, Santa Maria Public/Capt. G. Allan Hancock Field,-120.4570007,34.89889908
RKS, Southwest Wyoming Regional,-109.065001,41.5942
OPO, Porto Airport,-8.681389809,41.24810028
HOB, Lea County Regional,-103.21700290000001,32.6875
BTM, Bert Mooney,-112.49700159999998,45.95479965
FOR, Pinto Martins International,-38.53260039999999,-3.7762799260000004
ACC, Accra Kotoka International,-0.166786,5.6051898
RHI, Rhinelander/Oneida County,-89.46749878,45.63119888
SPB, Charlotte Amalie Harbor Seaplane Base,-64.94069672,18.33860016
ROR, Babelthuap,134.544236,7.367310000000001
SSB, Christiansted Harbor Seaplane Base,-64.705,17.747222
REC, Guararapes Gilberto Freyre International,-34.92359924,-8.126489638999999
BCN, Barcelona Airport,2.0784599999999998,41.2971
TAS, Tashkent Islam Karimov,69.28119659,41.25790024
GCC, Gillette Campbell County,-105.53900149999998,44.34889984
SZX, Bao'an International,113.810997,22.63929939
HMO, General Ignacio P. Garcia International,-111.04799650000001,29.09589958
BGM, Greater Binghamton/Edwin A. Link Field,-75.97979736,42.20869827
AGU, Jesus Teran International,-102.318001,21.705601
GCK, Garden City Regional,-100.72399899999999,37.92750168
HND, Tokyo International,139.779999,35.552299
CAN, Baiyun International,113.29900359999999,23.39240074
ITO, Hilo International,-155.04800419999998,19.72139931
LGW, London Gatwick,-0.190278,51.148102
LCH, Lake Charles Regional,-93.22329712,30.12610054
CTU, Shuangliu,103.94699859999999,30.57850075
WAW, Warsaw Chopin,20.96710014,52.16569901
BPT, Jack Brooks Regional,-94.02069855,29.95079994
SBY, Salisbury-Ocean City/Wicomico Regional,-75.51029968,38.34049988
CKG, Jiangbei,106.6419983,29.71920013
BJI, Bemidji Regional,-94.93370056,47.50939941
HKG, Hong Kong International,113.915001,22.308901000000002
LTO, Loreto International,-111.34799960000001,25.98920059
LIS, Lisboa,-9.13592,38.7813
LWS, Lewiston Nez Perce County,-117.0149994,46.37450027
GRU, Guarulhos Gov Andre Franco Montoro,-46.47305679,-23.43555641
FUK, Fukuoka Airport,130.451004,33.58589935
BEG, Beograd,20.3090992,44.81840134
BRU, Brussels National,4.48443985,50.90140152
BQK, Brunswick Golden Isles,-81.46649933,31.25880051
MXP, Malpensa,8.728110000000001,45.6306
NKG, Lukou,118.86199950000001,31.74200058
RDD, Redding Municipal,-122.2929993,40.50899887
TAO, Liuting,120.3740005,36.26610184
TLV, Ben Gurion,34.88669968,32.01139832
CSG, Columbus Airport,-84.93890381,32.516300199999996
PDL, Ponta Delgada Airport,-25.69790077,37.74119949
KIX, Kansai International,135.2440033,34.4272995
PSE, Mercedita,-66.56300354,18.00830078
ALW, Walla Walla Regional,-118.288002,46.09489822
ABY, Southwest Georgia Regional,-84.19450378,31.53549957
FLO, Florence Regional,-79.72389984,34.1853981
FOC, Changle,119.663002,25.93510056
CNF, Tancredo Neves International,-43.9719429,-19.62444305
VLD, Valdosta Regional,-83.27670288,30.78249931
JED, King Abdulaziz International,39.156502,21.6796
CMN, Mohammed V International,-7.5899701120000005,33.36750031
VRA, Juan Gualberto Gomez International,-81.43530273,23.03440094
PIH, Pocatello Regional,-112.5960007,42.90980148
GCN, Grand Canyon National Park,-112.14700320000001,35.95240021
SHE, Taoxian,123.4830017,41.63980103
BAQ, Ernesto Cortissoz,-74.7808,10.8896
ACY, Atlantic City International,-74.57720184,39.45759964
RUH, King Khalid International,46.69879913,24.95759964
UIO, Old Mariscal Sucre International,-78.3575,-0.12916666699999999
XMN, Gaoqi,118.12799840000002,24.54400063
PGV, Pitt Greenville,-77.38529968,35.6352005
HHH, Hilton Head Airport,-80.69750214,32.22439957
TYR, Tyler Pounds Regional,-95.40239716,32.35409927
AUH, Abu Dhabi International,54.65110016,24.43300056
HOG, Frank Pais International,-76.31510162,20.78560066
TXL, Tegel,13.2877,52.5597
WUH, Tianhe,114.208,30.7838
DHN, Dothan Regional,-85.44960022,31.32130051
BOM, Chhatrapati Shivaji Maharaj International,72.86789703,19.08869934
BSB, Presidente Juscelino Kubitschek International,-47.92083359,-15.86916733
DXB, Dubai International,55.36439896,25.25279999
EAT, Pangborn Memorial,-120.2070007,47.39889908
VVI, Viru Viru International,-63.135399,-17.6448
JNB, Oliver Reginald Tambo International,28.246,-26.1392
ATH, Eleftherios Venizelos International,23.94449997,37.93640137
PUS, Gimhae International,128.93800349999998,35.17950058
NBO, Nairobi Jomo Kenyatta International,36.92779922,-1.319239974
PUW, Pullman Moscow Regional,-117.110001,46.7439
SCL, Arturo Merino Benitez International,-70.78579712,-33.39300156
MVD, Carrasco International,-56.0308,-34.838402
YUM, Yuma MCAS/Yuma International,-114.6060028,32.65660095
YKM, Yakima Air Terminal/McAllister Field,-120.5439987,46.56819916
KBP, Boryspil International,30.894699100000004,50.34500122
DOH, Doha International,51.608056,25.273056
KWI, Kuwait International,47.96889877,29.22660065
CAI, Cairo International,31.40559959,30.12190056
ALZ, Alitak Seaplane Base,-154.247778,56.899443999999995
SYB, Seal Bay Airport,-152.5,58.166667000000004
ICY, Icy Bay Airport,-141.661667,59.968889000000004
XWA, Williston Basin International,-103.74677134756399,
NKI, Naukiti Airport,-133.2292064,
LED, Pulkovo,30.26250076,59.80030060000001
BJC, Rocky Mountain Metro,-105.11699679999998,39.90879822
CHD, Chandler Municipal,-111.81092530578199,
FTY, Fulton County Airport-Brown Field,-84.52140045,33.77909851
SXF, Schoenefeld,13.5225,52.380001
TLC, Licenciado Adolfo Lopez Mateos International,-99.56600189,19.33709908
ASH, Boire Field,-71.51480103,42.78170013
LWM, Lawrence Municipal,-71.12339783,42.71720123
MA4, Marshfield Municipal George Harlow Field,23.386810634956497,
ARA, Acadiana Regional,-91.883904,30.0378
ASN, Talladega Municipal,-86.05090332,33.56990051
LA1, Natchitoches Regional,-93.0990982055664,
PWK, Chicago Executive,-87.901494,42.114222
SIR, Sion Airport,7.326759815,46.21960068
STN, London Stansted,0.234999999,51.88499832
VRN, Villafranca,10.8885,45.395699
NV6, Calvada Meadows,8.557041499999999,
UDD, Bermuda Dunes Airport,-116.27500149999999,33.74840164
GRQ, Eelde,6.579440117000001,53.11970139
LUX, Luxembourg Airport,6.204444400000001,49.6233333
MCC, McClellan Airfield,-121.40100100000001,38.66759872
NEW, Lakefront,-90.02829742,30.04240036
AVW, Marana Regional,-111.21800230000001,32.4095993
BIH, Bishop Airport,-118.36399840000001,37.37310028
KOY, Olga Bay Seaplane Base,-154.229722,57.161389
MZJ, Pinal Airpark,-111.32800290000002,32.51060104
FHB, Fernandina Beach Municipal,-81.461197,
ROG, Rogers Executive Carter Field,-94.10690308,
FDY, Findlay Airport,-83.66870117,41.01350021
GON, Groton-New London,-72.04509735,41.33010101
RBW, Lowcountry Regional,-80.6415027,
SEG, Penn Valley,-76.863304,
SLU, George F Charles,-60.992901,14.0202
KCC, Coffman Cove Seaplane Base,-132.833889,56.014722
SVW, Sparrevohn LRRS,-155.5740051,61.09740067
FMN, Four Corners Regional,-108.2300034,36.74119949
LAL, Lakeland Linder International,-82.018602,27.988899
MKC, Charles B. Wheeler Downtown,-94.59279633,39.12319946
LEW, Auburn Lewiston Municipal,-70.28350067,44.04850006
PSA, Pisa Airport,10.3927,43.683899
BLL, Billund Airport,9.151780128,55.74029922
SMV, Samedan,9.884110451,46.53409958
SZG, Salzburg Airport,13.00430012,47.79330063
MFM, Macau International,113.592003,22.149599
QMA, Cobb County International McCollum Field,-84.597027,
PNE, Northeast Philadelphia,-75.010597,40.081902
AWM, West Memphis Municipal,-90.2342623,
IL3, Litchfield Municipal,-94.5073013305664,
WDR, Barrow County,-83.66739655,33.98289871
GMP, Gimpo International,126.791,37.5583
TRN, Torino,7.64963,45.200802
SBD, San Bernardino International,-117.2350006,34.09540176
BFT, Beaufort County,-80.63439941,32.41220093
THV, York Airport,-76.8721595995092,
HLG, Wheeling Ohio County,-80.64630127,40.17499924
LNA, Palm Beach County Park,-80.08509827,26.59300041
YPR, Prince Rupert,-130.4450073,54.28609848
MXL, General Rodolfo Sanchez Taboada International,-115.241997,32.6306
NIB, Nikolai Airport,-154.358002,63.0186
GA3, Newnan Coweta County,-84.7697982788086,
ERF, Erfurt Weimar,10.95810032,50.97980118
WKV, Penns Landing Seaplane Base,-75.141288,
PIK, Prestwick,-4.586669922,55.50939941
CPT, Cape Town International,18.60169983,-33.96480179
VIJ, Virgin Gorda Airport,-64.42749786,18.44639969
N2C, Charlotte Monroe Executive,-80.62205,
LSV, Nellis AFB,-115.0339966,36.23619843
LUF, Luke AFB,-112.38300320000002,33.53499985
YMX, Montreal International (Mirabel),-74.038696,45.679501
UOX, University-Oxford,-89.53679657,34.38430023
YHU, St. Hubert,-73.41690063,45.51750183
NC1, Gastonia Municipal,103.9926003,
EDF, Elmendorf AFB,-149.8070068,61.25099945
XIY, Xianyang,108.751999,34.447102
RDG, Reading Regional/Carl A Spaatz Field,-75.96520233,40.37850189
TCM, McChord Field,-122.47599790000001,47.13769913
YQM, Greater Moncton Romeo Leblanc International,-64.6785965,46.11220169
RIV, March ARB,-117.259003,33.880699
IST, Istanbul Airport,28.751944,41.275278
FAO, Faro Airport,-7.965909957999999,37.01440048
GOT, Landvetter,12.27980042,57.66279984
ANR, Deurne,4.460279942,51.18939972
BRN, Bern/Belp,7.497149943999999,46.91410065
ODE, Hans Christian Anderson,10.33090019,55.47669983
OXF, Oxford Airport,-1.320000052,51.83689879999999
WMK, Meyers Chuck Seaplane Base,-132.2583689,
AGC, Allegheny County,-79.93019867,40.35440063
FID, Elizabeth Field,-72.0154,41.1505
ME3, Belfast Municipal,-69.01190185546875,
SFZ, North Central State,-71.49140167,41.92079926
GBH, Galbraith Lake Airport,-149.49,
CO1, Monte Vista Municipal,-106.0479965209961,
CXO, Conroe North Houston Regional,-95.414497,30.351801000000002
LGU, Logan Cache,-111.85199740000002,41.79119873
PWA, Wiley Post,-97.64710236,35.53419876
FPR, Treasure Coast International,-80.36830139,27.49510002
EEN, Dillant Hopkins,-72.27079773,42.89839935
JBQ, Dr. Joaquin Balaguer International,-69.98560333,18.57250023
MQI, Quincy Airport,-71.0,
OBE, Okeechobee County,-80.84980011,27.26280022
PA5, Brandywine Regional,-75.581902,
RME, Griffiss International,-75.40699768,43.23379898
BFK, Buckley AFB,-104.7519989,39.7016983
MEV, Minden-Tahoe,-119.751701872726,
YHM, John C. Munro Hamilton International,-79.93499756,43.17359924
FMY, Page Field,-81.86329651,26.58659935
DWC, Dubai Al Maktoum International,55.161389,24.896356
BNF, Warm Spring Bay Seaplane Base,5.321868,60.395178
IN6, Clark Regional,-85.73819732666016,
YGK, Kingston Airport,-76.59690094,44.22529984
CIA, Ciampino,12.5949,41.7994
NHT, RAF Northolt,-0.418166995,51.5530014
WLG, Wellington International,174.80499269999999,-41.32720184
CWB, Afonso Pena,-49.17580032,-25.5284996
LPS, Lopez Island Airport,-122.9380035,48.48389816
MST, Maastricht Aachen,5.7701400000000005,50.911701
SEF, Sebring Regional,-81.3423996,27.45639992
HAJ, Hannover Airport,9.685079575,52.46110153
TYM, Staniel Cay,-76.43910217,24.16909981
ZXH, Chomondely Sound Airport,-132.32105,
HWD, Hayward Executive,-122.12200159999998,37.65919876
VIS, Visalia Municipal,-119.3929977,36.31869888
SUS, Spirit of St. Louis,-90.65200043,38.66210175
AIK, Aiken Regional,-81.684998,33.649399
DVT, Phoenix - Deer Valley,-112.08300020000001,33.68830109
FYV, Drake Field,-94.17009735,36.00510025
LRU, Las Cruces International,-106.92199709999998,32.28939819
TKI, Tokeen Airport,-133.3261834,
VGT, North Las Vegas,-115.1940002,36.21070099
VWD, Hanford Municipal,-119.62799840000002,
ESN, Easton/Newnam Field,-76.06900024,38.80419922
YQG, Windsor Airport,-82.95559692,42.27560043
YRQ, Trois Rivieres Airport,-72.67939758,46.35279846
RKV, Reykjavik Airport,-21.94059944,64.12999725
ILG, New Castle,-75.60649872,39.67869949
XRY, Jerez,-6.060110092,36.74459839
UBF, Chatham Municipal,-69.989501953125,
05A, Little Squaw Airport,-86.88003409999999,
RLU, Bornite Upper,-156.933,
MRC, Maury County,-87.1800643125152,
JZI, Portland Municipal,-84.99009705,
YXT, Terrace Airport,-128.576009,54.468498
NLC, Lemoore NAS,-119.95200349999999,36.33300018
HBI, Harbour Island Airport,-76.75,
MHR, Sacramento Mather,-121.29799650000001,38.55390167
JCI, New Century Aircenter,-94.89029694,38.83089828
NMC, Norman's Cay Airport,-76.82019806,24.59429932
LYS, Lyon Saint Exupery,5.081111,45.725556
ESB, Esenboga,32.99509811,40.12810135
PVS, Provideniya Bay,-173.2429962,64.37809753
CFT, Greenlee County,-109.20999909999999,
PUQ, Carlos Ibanez del Campo International,-70.854599,-53.002602
NTR, Del Norte International,-100.23700000000001,25.865601
VCE, Marco Polo International,12.3519,45.505299
TFS, Tenerife Sur,-16.57250023,28.04450035
ADW, Joint Base Andrews,-76.866997,38.810798999999996
BIF, Biggs AAF,-106.3799973,31.84950066
YNG, Youngstown-Warren Regional,-80.67910004,41.26070023
FSZ, Shizuoka Airport,138.18944399999998,34.796110999999996
NOU, Noumea La Tontouta,166.2129974,-22.01460075
IWO, Iwoto Airport,141.32299799999998,24.7840004
GLA, Glasgow Airport,-4.433060169,55.87189865
PSF, Pittsfield Municipal,-73.2928876455017,
BAF, Westfield Barnes Regional,-72.715599,42.157799
UT1, Heber Valley,2.5483569,
RCE, Roche Harbor Airport,-123.159722,48.608056
OLM, Olympia Regional,-122.90299990000001,46.9693985
GYR, Phoenix Goodyear,-112.3759995,33.42250061
YTM, Mont-Tremblant International,-74.77999878,46.40940094
YKF, Waterloo,-80.37860107,43.46080017
HTO, East Hampton Airport,-72.2498948795567,
CAT, New Bight Airport,-9.35523,38.724998
WTD, West End Airport,-78.9834305553414,
RLG, Laage,12.27830029,53.91820145
MPL, Montpellier Mediterranee,3.963010073,43.57619858
YXY, Erik Nielsen International,-135.06700130000002,60.70959854
CGN, Koeln Bonn,7.142739773,50.86589813
TIW, Tacoma Narrows,-122.57800290000002,47.26789856
JXN, Jackson County-Reynolds Field,-84.45939636,42.25979996
PBM, Johan A. Pengel International,-55.18780136,5.4528298379999995
CYB, Charles Kirkconnell International,-79.88279724,19.68700027
6B0, Middlebury State,-73.09590148929999,
1GA, Henry County,-88.38289642330002,
TSA, Taipei Songshan,121.552002,25.06940079
HIO, Portland Hillsboro,-122.949997,45.540401
AUZ, Aurora Municipal,-88.4594887623607,
TLN, Hyeres Le Palyvestre,6.146029949,43.09730148
WY1, Ralph Wenz Field,-109.8069992,
UKI, Ukiah Municipal,-123.20099640000001,39.12599945
GA6, Cherokee County,-81.204161,
FLX, Fallon Municipal,-118.7496591,
HSH, Henderson Executive,-115.1340027,35.97280121
DMA, Davis Monthan AFB,-110.88300320000002,32.16650009
OSN, Osan AB,127.029999,37.090599
OKA, Naha,127.6460037,26.19580078
SKF, Kelly Field,-98.58110046,29.38419914
JER, Jersey Airport,-2.195509911,49.207901
SCQ, Santiago,-8.415140152000001,42.89630127
PML, Port Moller Airport,-160.5610046,56.00600052
ZBL, Biloela (Thangool),150.576861735898,
GGE, Georgetown County,-79.31960297,33.31169891
SOU, Southampton Airport,-1.35679996,50.95029831
OST, Oostende,2.862220049,51.19889832
RIX, Riga International,23.97109985,56.92359924
MME, Durham Tees Valley,-1.4294099809999998,54.50920105
PRG, Ruzyne,14.26,50.1008
IOA, Ioannina Airport,20.82250023,39.69639969
LUG, Lugano Airport,8.910579681,46.00429916
ZNA, Harbour,-123.9499969,49.18330002
ETZ, Metz Nancy Lorraine,6.251319885,48.98210144
NGU, Norfolk NS,-76.289299,36.937599
2GA, Camilla Mitchell County,-84.23680114746094,
YDA, Dawson City Airport,-139.128006,64.04309845
YQX, Gander International,-54.56809998,48.93690109
NUW, Whidbey Island NAS,-122.655998,48.351799
BRS, Bristol Airport,-2.71909,51.382702
POB, Pope AAF,-79.01450348,35.17089844
